[
  {
    "type": "Studied",
    "name": "Frankfurt International School",
    "role": "9th Grade",
    "description": "While living abroad in Germany. Also lived in Frankfurt for middle school.",
    "location": { "lat": 50.21366, "lon": 8.54163 }
  },
  {
    "type": "Studied",
    "name": "The Taft School",
    "role": "10th, 11th, 12th Grades",
    "description": "Finished off high school. Played on varsity soccer, active community service member.",
    "location": { "lat": 41.60393, "lon": -73.12447 }
  },
  {
    "type": "Studied",
    "name": "Northeastern University",
    "role": "Freshman to 2026 Graduation",
    "description": "Studying computer science and math, completing three co-ops gaining real world experience.",
    "location": { "lat": 42.33890, "lon": -71.08820 }
  },
  {
    "type": "Work (other)",
    "name": "Pomperaug River Watershed Coalition",
    "role": "Youth Conservation Corps",
    "description": "Promoted environmental sustainability and participated in community cleanup efforts. Featured in local newspaper for efforts.",
    "location": { "lat": 41.52905, "lon": -73.20106 }
  },
  {
    "type": "Work (other)",
    "name": "YMCA Camp Tepee",
    "role": "Summer Camp Counselor",
    "description": "Genuinely the most fun I have had working. Awarded singular 'Counselor the Year' and 'Dynamic Duo' with co-counselor.",
    "location": { "lat": 41.31959, "lon": -73.26907 }
  },
  {
    "type": "Work (other)",
    "name": "Northeastern University London",
    "role": "CS Student Rep",
    "description": "Elected by peers to represent CS students while studying abroad. Advocated for various issues, ultimately leading to more office hours and minor assignment extensions.",
    "location": { "lat": 51.50600, "lon": -0.07092 }
  },
  {
    "type": "Work (other)",
    "name": "Huntington Ave YMCA",
    "role": "Welcome Center Representative",
    "description": "Part time role during school semesters. Engaged with community members, bringing a positive attitude to the front desk everyday.",
    "location": { "lat": 42.34081, "lon": -71.08736 }
  },
  {
    "type": "Work (technical)",
    "name": "Conair",
    "role": "Web Development Intern",
    "description": "First technical internship gaining hands on experience with a multinational and recognizable brand. Developed in a traditional stack as well as in Saleforce Commerce Cloud.",
    "location": { "lat": 41.02849, "lon": -73.55427 }
  },
  {
    "type": "Work (technical)",
    "name": "MIT Lincoln Laboratory",
    "role": "DevSecOps Co-op",
    "description": "First technical co-op helping grow and document DevSecOps practices for laboratory use. Maintained codebases for demonstration purposes and to exhibit group's capabilities.",
    "location": { "lat": 42.45899, "lon": -71.26746 }
  },
  {
    "type": "Work (technical)",
    "name": "Riverside Research",
    "role": "Software Engineering Co-op",
    "description": "Second and third co-ops building on skills to help develop cutting edge AI tools for intelligence and defense use.",
    "location": { "lat": 42.47297, "lon": -71.25946 }
  }
]
